[
  {
    "name": "Tallaght",
    "name_abv": "TAL",
    "line": "red",
    "coordinates": [
      53.28749444,
      -6.374588889
    ]
  },
  {
    "name": "Drimnagh",
    "name_abv": "DRI",
    "line": "red",
    "coordinates": [
      53.33536111,
      -6.318161111
    ]
  },
  {
    "name": "Goldenbridge",
    "name_abv": "GOL",
    "line": "red",
    "coordinates": [
      53.33589167,
      -6.313569444
    ]
  },
  {
    "name": "Suir Road",
    "name_abv": "SUI",
    "line": "red",
    "coordinates": [
      53.33661667,
      -6.307211111
    ]
  },
  {
    "name": "Rialto",
    "name_abv": "RIA",
    "line": "red",
    "coordinates": [
      53.33790833,
      -6.297241667
    ]
  },
  {
    "name": "Fatima",
    "name_abv": "FAT",
    "line": "red",
    "coordinates": [
      53.33843889,
      -6.292547222
    ]
  },
  {
    "name": "James's",
    "name_abv": "JAM",
    "line": "red",
    "coordinates": [
      53.34194167,
      -6.293361111
    ]
  },
  {
    "name": "Heuston",
    "name_abv": "HEU",
    "line": "red",
    "coordinates": [
      53.34664722,
      -6.291808333
    ]
  },
  {
    "name": "Museum",
    "name_abv": "MUS",
    "line": "red",
    "coordinates": [
      53.34786667,
      -6.286713889
    ]
  },
  {
    "name": "Smithfield",
    "name_abv": "SMI",
    "line": "red",
    "coordinates": [
      53.34713333,
      -6.277727778
    ]
  },
  {
    "name": "Four Courts",
    "name_abv": "FOU",
    "line": "red",
    "coordinates": [
      53.34686389,
      -6.273436111
    ]
  },
  {
    "name": "Hospital",
    "name_abv": "HOS",
    "line": "red",
    "coordinates": [
      53.28936944,
      -6.37885
    ]
  },
  {
    "name": "Jervis",
    "name_abv": "JER",
    "line": "red",
    "coordinates": [
      53.34768611,
      -6.265333333
    ]
  },
  {
    "name": "Abbey Street",
    "name_abv": "ABB",
    "line": "red",
    "coordinates": [
      53.34858889,
      -6.258172222
    ]
  },
  {
    "name": "Busaras",
    "name_abv": "BUS",
    "line": "red",
    "coordinates": [
      53.350075,
      -6.25145
    ]
  },
  {
    "name": "Connolly",
    "name_abv": "CON",
    "line": "red",
    "coordinates": [
      53.35092222,
      -6.249941667
    ]
  },
  {
    "name": "St. Stephen's Green",
    "name_abv": "STS",
    "line": "green",
    "coordinates": [
      53.33907222,
      -6.261333333
    ]
  },
  {
    "name": "Harcourt",
    "name_abv": "HAR",
    "line": "green",
    "coordinates": [
      53.33335833,
      -6.26265
    ]
  },
  {
    "name": "Charlemont",
    "name_abv": "CHA",
    "line": "green",
    "coordinates": [
      53.33066944,
      -6.258683333
    ]
  },
  {
    "name": "Ranelagh",
    "name_abv": "RAN",
    "line": "green",
    "coordinates": [
      53.32643333,
      -6.256202778
    ]
  },
  {
    "name": "Beechwood",
    "name_abv": "BEE",
    "line": "green",
    "coordinates": [
      53.32082222,
      -6.254652778
    ]
  },
  {
    "name": "Cowper",
    "name_abv": "COW",
    "line": "green",
    "coordinates": [
      53.31646667,
      -6.253447222
    ]
  },
  {
    "name": "Cookstown",
    "name_abv": "COO",
    "line": "red",
    "coordinates": [
      53.29350556,
      -6.384397222
    ]
  },
  {
    "name": "Milltown",
    "name_abv": "MIL",
    "line": "green",
    "coordinates": [
      53.30991667,
      -6.251727778
    ]
  },
  {
    "name": "Windy Arbour",
    "name_abv": "WIN",
    "line": "green",
    "coordinates": [
      53.30155833,
      -6.250708333
    ]
  },
  {
    "name": "Dundrum",
    "name_abv": "DUN",
    "line": "green",
    "coordinates": [
      53.29235833,
      -6.245116667
    ]
  },
  {
    "name": "Balally",
    "name_abv": "BAL",
    "line": "green",
    "coordinates": [
      53.28610556,
      -6.236772222
    ]
  },
  {
    "name": "Kilmacud",
    "name_abv": "KIL",
    "line": "green",
    "coordinates": [
      53.28300833,
      -6.223886111
    ]
  },
  {
    "name": "Stillorgan",
    "name_abv": "STI",
    "line": "green",
    "coordinates": [
      53.27931111,
      -6.209919444
    ]
  },
  {
    "name": "Sandyford",
    "name_abv": "SAN",
    "line": "green",
    "coordinates": [
      53.27760278,
      -6.204677778
    ]
  },
  {
    "name": "Central Park",
    "name_abv": "CPK",
    "line": "green",
    "coordinates": [
      53.27015,
      -6.203763889
    ]
  },
  {
    "name": "Glencairn",
    "name_abv": "GLE",
    "line": "green",
    "coordinates": [
      53.26633611,
      -6.209941667
    ]
  },
  {
    "name": "The Gallops",
    "name_abv": "GAL",
    "line": "green",
    "coordinates": [
      53.26116389,
      -6.206022222
    ]
  },
  {
    "name": "Belgard",
    "name_abv": "BEL",
    "line": "red",
    "coordinates": [
      53.29928611,
      -6.374886111
    ]
  },
  {
    "name": "Leopardstown Valley",
    "name_abv": "LEO",
    "line": "green",
    "coordinates": [
      53.25824722,
      -6.198361111
    ]
  },
  {
    "name": "Ballyogan Wood",
    "name_abv": "GAW",
    "line": "green",
    "coordinates": [
      53.255047,
      -6.184475
    ]
  },
  {
    "name": "Carrickmines",
    "name_abv": "CCK",
    "line": "green",
    "coordinates": [
      53.25403333,
      -6.169908333
    ]
  },
  {
    "name": "Laughanstown",
    "name_abv": "LAU",
    "line": "green",
    "coordinates": [
      53.25060556,
      -6.155005556
    ]
  },
  {
    "name": "Cherrywood",
    "name_abv": "CHE",
    "line": "green",
    "coordinates": [
      53.24533333,
      -6.145852778
    ]
  },
  {
    "name": "Bride's Glen",
    "name_abv": "BRI",
    "line": "green",
    "coordinates": [
      53.242075,
      -6.142886111
    ]
  },
  {
    "name": "Fettercairn",
    "name_abv": "FET",
    "line": "red",
    "coordinates": [
      53.29351885,
      -6.395553517
    ]
  },
  {
    "name": "Kingswood",
    "name_abv": "KIN",
    "line": "red",
    "coordinates": [
      53.30369444,
      -6.36525
    ]
  },
  {
    "name": "Cheeverstown",
    "name_abv": "CVN",
    "line": "red",
    "coordinates": [
      53.29098242,
      -6.4068485
    ]
  },
  {
    "name": "Citywest Campus",
    "name_abv": "CIT",
    "line": "red",
    "coordinates": [
      53.28783255,
      -6.418914583
    ]
  },
  {
    "name": "Fortunestown",
    "name_abv": "FOR",
    "line": "red",
    "coordinates": [
      53.28425063,
      -6.42460165
    ]
  },
  {
    "name": "Saggart",
    "name_abv": "SAG",
    "line": "red",
    "coordinates": [
      53.28467885,
      -6.43776255
    ]
  },
  {
    "name": "George's Dock",
    "name_abv": "GDK",
    "line": "red",
    "coordinates": [
      53.349528,
      -6.247575
    ]
  },
  {
    "name": "Mayor Square - NCI",
    "name_abv": "MYS",
    "line": "red",
    "coordinates": [
      53.34924722,
      -6.243394444
    ]
  },
  {
    "name": "Spencer Dock",
    "name_abv": "SDK",
    "line": "red",
    "coordinates": [
      53.34882222,
      -6.237147222
    ]
  },
  {
    "name": "The Point",
    "name_abv": "TPT",
    "line": "red",
    "coordinates": [
      53.34835,
      -6.229258333
    ]
  },
  {
    "name": "Dawson",
    "name_abv": "DAW",
    "line": "green",
    "coordinates": [
      53.34216927,
      -6.25796366
    ]
  },
  {
    "name": "Red Cow",
    "name_abv": "RED",
    "line": "red",
    "coordinates": [
      53.31683333,
      -6.369872222
    ]
  },
  {
    "name": "Trinity",
    "name_abv": "TRI",
    "line": "green",
    "coordinates": [
      53.34528172,
      -6.25825674
    ]
  },
  {
    "name": "Westmoreland",
    "name_abv": "WES",
    "line": "green",
    "coordinates": [
      53.34635626,
      -6.25897083
    ]
  },
  {
    "name": "Marlborough",
    "name_abv": "MAR",
    "line": "green",
    "coordinates": [
      53.34924219,
      -6.25773649
    ]
  },
  {
    "name": "O'Connell - GPO",
    "name_abv": "OGP",
    "line": "green",
    "coordinates": [
      53.34884509,
      -6.25988168
    ]
  },
  {
    "name": "O'Connell - Upper",
    "name_abv": "OUP",
    "line": "green",
    "coordinates": [
      53.35161218,
      -6.26102943
    ]
  },
  {
    "name": "Parnell",
    "name_abv": "PAR",
    "line": "green",
    "coordinates": [
      53.35310356,
      -6.26050153
    ]
  },
  {
    "name": "Dominick",
    "name_abv": "DOM",
    "line": "green",
    "coordinates": [
      53.3513492,
      -6.26554234
    ]
  },
  {
    "name": "Broadstone - DIT",
    "name_abv": "BRD",
    "line": "green",
    "coordinates": [
      53.35407442,
      -6.27375642
    ]
  },
  {
    "name": "Grangegorman",
    "name_abv": "GRA",
    "line": "green",
    "coordinates": [
      53.35719205,
      -6.27733848
    ]
  },
  {
    "name": "Phibsborough",
    "name_abv": "PHI",
    "line": "green",
    "coordinates": [
      53.36037646,
      -6.27888498
    ]
  },
  {
    "name": "Kylemore",
    "name_abv": "KYL",
    "line": "red",
    "coordinates": [
      53.32665556,
      -6.343444444
    ]
  },
  {
    "name": "Cabra",
    "name_abv": "CAB",
    "line": "green",
    "coordinates": [
      53.36433419,
      -6.28196899
    ]
  },
  {
    "name": "Broombridge",
    "name_abv": "BRO",
    "line": "green",
    "coordinates": [
      53.37223956,
      -6.29768465
    ]
  },
  {
    "name": "Bluebell",
    "name_abv": "BLU",
    "line": "red",
    "coordinates": [
      53.32929722,
      -6.333791667
    ]
  },
  {
    "name": "Blackhorse",
    "name_abv": "BLA",
    "line": "red",
    "coordinates": [
      53.33425833,
      -6.327394444
    ]
  }
]